[
  {
    "name": "가리산",
    "latitude": 37.5278,
    "longitude": 128.2075,
    "height": 1050,
    "address": "강원특별자치도 춘천시 북사면 물로리",
    "id": 421100101
  },
  {
    "name": "가리왕산",
    "latitude": 37.3964,
    "longitude": 128.2686,
    "height": 1561,
    "address": "강원특별자치도 정선군 정선읍 회동리",
    "id": 427700101
  },
  {
    "name": "가야산",
    "latitude": 35.6792,
    "longitude": 128.0633,
    "height": 1432,
    "address": "경상북도 성주군 수륜면 백운리",
    "id": 478400101
  },
  {
    "name": "가지산",
    "latitude": 35.4972,
    "longitude": 129.0956,
    "height": 1240,
    "address": "울산광역시 울주군 상북면 덕현리",
    "id": 317100101
  },
  {
    "name": "감악산",
    "latitude": 37.9333,
    "longitude": 126.9833,
    "height": 674,
    "address": "경기도 파주시 적성면 객현리",
    "id": 414800101
  },
  {
    "name": "강천산_왕자봉",
    "latitude": 35.2486,
    "longitude": 127.1222,
    "height": 585,
    "address": "전라북도 순창군 팔덕면 청계리",
    "id": 457700101
  },
  {
    "name": "계룡산_천황봉",
    "latitude": 36.2892,
    "longitude": 127.285,
    "height": 846,
    "address": "충청남도 공주시 계룡면 양화리",
    "id": 441500301
  },
  {
    "name": "계방산",
    "latitude": 37.4314,
    "longitude": 128.3742,
    "height": 1579,
    "address": "강원특별자치도 홍천군 내면 창촌리",
    "id": 427206801
  },
  {
    "name": "공작산",
    "latitude": 37.5744,
    "longitude": 128.1794,
    "height": 887,
    "address": "강원특별자치도 홍천군 화촌면 굴운리",
    "id": 427200401
  },
  {
    "name": "관악산",
    "latitude": 37.4756,
    "longitude": 126.9511,
    "height": 632,
    "address": "서울특별시 관악구 신림동",
    "id": 116200201
  },
  {
    "name": "구병산",
    "latitude": 36.4633,
    "longitude": 127.7,
    "height": 876,
    "address": "충청북도 보은군 속리산면 구병리",
    "id": 437200401
  },
  {
    "name": "금산",
    "latitude": 34.83,
    "longitude": 128.08,
    "height": 704,
    "address": "경상남도 남해군 이동면 신전리",
    "id": 488400801
  },
  {
    "name": "금수산",
    "latitude": 37.15,
    "longitude": 128.2,
    "height": 1015,
    "address": "충청북도 제천시 수산면 상천리",
    "id": 431500701
  },
  {
    "name": "금오산",
    "latitude": 35.1675,
    "longitude": 128.3492,
    "height": 976,
    "address": "경상북도 구미시 남통동",
    "id": 471900101
  },
  {
    "name": "금정산",
    "latitude": 35.2325,
    "longitude": 129.0725,
    "height": 800,
    "address": "부산광역시 금정구 금성동",
    "id": 264100101
  },
  {
    "name": "깃대봉",
    "latitude": 34.6825,
    "longitude": 125.1917,
    "height": 381,
    "address": "전라남도 신안군 흑산면 홍도리",
    "id": 469100501
  },
  {
    "name": "남산",
    "latitude": 35.8567,
    "longitude": 129.2183,
    "height": 468,
    "address": "경상북도 경주시 탑동, 배동, 내남면",
    "id": 471300201
  },
  {
    "name": "내연산",
    "latitude": 36.0425,
    "longitude": 129.375,
    "height": 711,
    "address": "경상북도 포항시 북구 송라면",
    "id": 471100801
  },
  {
    "name": "내장산",
    "latitude": 35.5633,
    "longitude": 126.87,
    "height": 763,
    "address": "전라북도 정읍시 내장동",
    "id": 451800501
  },
  {
    "name": "대둔산_마천대",
    "latitude": 36.2875,
    "longitude": 127.3475,
    "height": 879,
    "address": "충청남도 논산시 벌곡면 수락리",
    "id": 442300801
  },
  {
    "name": "대암산",
    "latitude": 38.1292,
    "longitude": 128.1456,
    "height": 1312,
    "address": "강원특별자치도 인제군 북면 월학리",
    "id": 428101301
  },
  {
    "name": "대야산",
    "latitude": 36.7403,
    "longitude": 128.1536,
    "height": 931,
    "address": "경상북도 문경시 가은읍 완장리",
    "id": 472800901
  },
  {
    "name": "덕숭산_수덕산",
    "latitude": 36.7361,
    "longitude": 126.9078,
    "height": 495,
    "address": "충청남도 예산군 덕산면 대치리",
    "id": 448100401
  },
  {
    "name": "덕유산_향적봉",
    "latitude": 35.86,
    "longitude": 127.7717,
    "height": 1614,
    "address": "전라북도 무주군 설천면 삼공리",
    "id": 457300702
  },
  {
    "name": "덕항산",
    "latitude": 37.2061,
    "longitude": 129.1156,
    "height": 1072,
    "address": "강원특별자치도 태백시 하사미동",
    "id": 421900601
  },
  {
    "name": "도락산",
    "latitude": 36.9763,
    "longitude": 128.38,
    "height": 965,
    "address": "충청북도 단양군 단성면 벌천리",
    "id": 438002801
  },
  {
    "name": "도봉산_자운봉",
    "latitude": 37.6886,
    "longitude": 127.0394,
    "height": 740,
    "address": "서울특별시  도봉구 도봉동",
    "id": 113200102
  },
  {
    "name": "두륜산_가련봉",
    "latitude": 34.5536,
    "longitude": 126.5981,
    "height": 700,
    "address": "전라남도 해남군 북일면 흥촌리",
    "id": 468201301
  },
  {
    "name": "두타산",
    "latitude": 37.4878,
    "longitude": 129.1083,
    "height": 1357,
    "address": "강원특별자치도 삼척시 미로면 삼거리",
    "id": 422301901
  },
  {
    "name": "마니산",
    "latitude": 37.7411,
    "longitude": 126.4822,
    "height": 472,
    "address": "인천광역시 강화군 화도면 문산리",
    "id": 287100601
  },
  {
    "name": "마이산",
    "latitude": 35.7517,
    "longitude": 127.3703,
    "height": 687,
    "address": "전라북도 진안군 마령면 동촌리",
    "id": 457200901
  },
  {
    "name": "명성산",
    "latitude": 38.2211,
    "longitude": 127.2972,
    "height": 922,
    "address": "강원특별자치도 철원군 갈말읍 신철원리",
    "id": 427800701
  },
  {
    "name": "명지산",
    "latitude": 37.8322,
    "longitude": 127.5236,
    "height": 1252,
    "address": "경기도 가평군 북면 도대리",
    "id": 418201401
  },
  {
    "name": "모악산",
    "latitude": 35.8253,
    "longitude": 127.1296,
    "height": 795,
    "address": "전라북도 김제시 금산면 금산리",
    "id": 452100701
  },
  {
    "name": "무등산_천왕봉",
    "latitude": 35.1592,
    "longitude": 126.9264,
    "height": 1186,
    "address": "광주광역시 북구 석곡동",
    "id": 291700501
  },
  {
    "name": "무학산",
    "latitude": 35.2283,
    "longitude": 128.6583,
    "height": 761,
    "address": "경상남도 창원시 마산회원구 내서읍 감천리",
    "id": 481500901
  },
  {
    "name": "미륵산",
    "latitude": 34.8422,
    "longitude": 128.4333,
    "height": 458,
    "address": "경상남도 통영시 봉평동",
    "id": 482201101
  },
  {
    "name": "민주지산",
    "latitude": 36.2208,
    "longitude": 128.0736,
    "height": 1241,
    "address": "충청북도 영동군 상촌면 물한리",
    "id": 437401401
  },
  {
    "name": "방장산",
    "latitude": 35.5292,
    "longitude": 126.7092,
    "height": 733,
    "address": "전라북도 고창군 신림면 가평리",
    "id": 457900601
  },
  {
    "name": "방태산",
    "latitude": 38.1372,
    "longitude": 128.1583,
    "height": 1445,
    "address": "강원특별자치도 인제군 상남면 미산리",
    "id": 428102201
  },
  {
    "name": "백덕산",
    "latitude": 37.4544,
    "longitude": 128.4875,
    "height": 1350,
    "address": "강원특별자치도 평창군 방림면 운교리",
    "id": 427602301
  },
  {
    "name": "백암산_상왕봉",
    "latitude": 35.4167,
    "longitude": 126.9667,
    "height": 741,
    "address": "전라남도 장성군 북하면 신성리",
    "id": 468801201
  },
  {
    "name": "백운산",
    "latitude": 37.3333,
    "longitude": 128.65,
    "height": 883,
    "address": "강원특별자치도 정선군 신동읍 운치리",
    "id": 427708601
  },
  {
    "name": "백운산",
    "latitude": 35.1167,
    "longitude": 127.6167,
    "height": 1222,
    "address": "전라남도 광양시 옥룡면 동곡리",
    "id": 462300801
  },
  {
    "name": "백운산",
    "latitude": 38.0833,
    "longitude": 127.3167,
    "height": 903,
    "address": "경기도 포천시 이동면 도평리",
    "id": 416501801
  },
  {
    "name": "변산",
    "latitude": 35.6667,
    "longitude": 126.55,
    "height": 508,
    "address": "전라북도 부안군 변산면, 상서면, 진서면",
    "id": 458002001
  },
  {
    "name": "북한산_백운대",
    "latitude": 37.6594,
    "longitude": 126.9858,
    "height": 835,
    "address": "서울특별시  강북구 우이동",
    "id": 113050202
  },
  {
    "name": "비슬산",
    "latitude": 35.7167,
    "longitude": 128.55,
    "height": 1083,
    "address": "대구광역시 달성군 유가읍 양리",
    "id": 277101501
  },
  {
    "name": "삼악산",
    "latitude": 37.95,
    "longitude": 127.7,
    "height": 655,
    "address": "강원특별자치도 춘천시 서면 덕두원리",
    "id": 421102701
  },
  {
    "name": "서대산",
    "latitude": 36.0833,
    "longitude": 127.5833,
    "height": 905,
    "address": "충청남도 금산군 군북면 보광리",
    "id": 447101401
  },
  {
    "name": "선운산_도솔봉",
    "latitude": 35.5,
    "longitude": 126.5833,
    "height": 334,
    "address": "전라북도 고창군 아산면 삼인리",
    "id": 457901001
  },
  {
    "name": "설악산_대청봉",
    "latitude": 38.1194,
    "longitude": 128.4656,
    "height": 1708,
    "address": "강원특별자치도 양양군 서면 오색리",
    "id": 428302602
  },
  {
    "name": "성인봉",
    "latitude": 37.5,
    "longitude": 130.8667,
    "height": 986,
    "address": "경상북도 울릉군 북면 나리",
    "id": 479400901
  },
  {
    "name": "소백산_비로봉",
    "latitude": 36.95,
    "longitude": 128.4833,
    "height": 1439,
    "address": "충청북도 단양군 가곡면 어의곡리",
    "id": 438001301
  },
  {
    "name": "소요산",
    "latitude": 37.95,
    "longitude": 127.0833,
    "height": 587,
    "address": "경기도 동두천시 상봉암동",
    "id": 412500201
  },
  {
    "name": "속리산_천황봉",
    "latitude": 36.5417,
    "longitude": 127.8667,
    "height": 1058,
    "address": "충청북도 보은군 속리산면 도화리",
    "id": 437201201
  },
  {
    "name": "신불산",
    "latitude": 35.5333,
    "longitude": 129.05,
    "height": 1159,
    "address": "울산광역시 울주군 상북면 등억알프스리",
    "id": 317102401
  },
  {
    "name": "연화산",
    "latitude": 34.95,
    "longitude": 128.25,
    "height": 524,
    "address": "경상남도 고성군 개천면 좌연리",
    "id": 488205101
  },
  {
    "name": "오대산_노인봉",
    "latitude": 37.7833,
    "longitude": 128.5667,
    "height": 1565,
    "address": "강원특별자치도 강릉시 연곡면 삼산리",
    "id": 421504602
  },
  {
    "name": "오봉산",
    "latitude": 37.9667,
    "longitude": 127.6833,
    "height": 777,
    "address": "강원특별자치도 춘천시 북산면 청평리",
    "id": 421103801
  },
  {
    "name": "용문산",
    "latitude": 37.4319,
    "longitude": 127.5314,
    "height": 1157,
    "address": "경기도 양평군 옥천면 용천리",
    "id": 418303101
  },
  {
    "name": "용화산",
    "latitude": 38.1211,
    "longitude": 128.1111,
    "height": 877,
    "address": "강원특별자치도 화천군 간동면 유촌리",
    "id": 427901901
  },
  {
    "name": "운문산",
    "latitude": 35.5465,
    "longitude": 128.7725,
    "height": 1195,
    "address": "경상북도 청도군 운문면 신원리",
    "id": 478202401
  },
  {
    "name": "운악산",
    "latitude": 37.8333,
    "longitude": 127.2833,
    "height": 934,
    "address": "경기도 포천시 화현면 화현리",
    "id": 416502601
  },
  {
    "name": "운장산",
    "latitude": 35.5322,
    "longitude": 127.3522,
    "height": 1125,
    "address": "전라북도 진안군 부귀면 황금리",
    "id": 457202301
  },
  {
    "name": "월악산_영봉",
    "latitude": 36.975,
    "longitude": 128.2292,
    "height": 1095,
    "address": "충청북도 제천시 한수면 송계리",
    "id": 431503501
  },
  {
    "name": "월출산_천황봉",
    "latitude": 34.7742,
    "longitude": 126.7464,
    "height": 810,
    "address": "전라남도 강진군 성전면 월남리",
    "id": 468102301
  },
  {
    "name": "유명산",
    "latitude": 37.5744,
    "longitude": 127.4878,
    "height": 864,
    "address": "경기도 양평군 옥쳔면 용천리",
    "id": 418303301
  },
  {
    "name": "응봉산",
    "latitude": 37.4486,
    "longitude": 129.1608,
    "height": 999,
    "address": "강원특별자치도 삼척시 가곡면 풍곡리",
    "id": 422305301
  },
  {
    "name": "장안산_상봉",
    "latitude": 35.5986,
    "longitude": 126.6356,
    "height": 1237,
    "address": "전라북도 장수군 계남면 장안리",
    "id": 457402601
  },
  {
    "name": "재약산",
    "latitude": 35.4875,
    "longitude": 128.725,
    "height": 1119,
    "address": "경상남도 밀양시 단장면 구천리",
    "id": 482704101
  },
  {
    "name": "적상산",
    "latitude": 35.7081,
    "longitude": 127.7236,
    "height": 1030,
    "address": "전라북도 무주군 적상면 북창리",
    "id": 457301901
  },
  {
    "name": "점봉산",
    "latitude": 38.0531,
    "longitude": 128.2714,
    "height": 1426,
    "address": "강원특별자치도 인제군 인제읍 귀둔리",
    "id": 428104601
  },
  {
    "name": "조계산_장군봉",
    "latitude": 34.9469,
    "longitude": 127.5406,
    "height": 887,
    "address": "전라남도 순천시 송광면 장안리",
    "id": 461502801
  },
  {
    "name": "주왕산",
    "latitude": 36.46,
    "longitude": 129.1069,
    "height": 722,
    "address": "경상북도 청송군 부동면 상의리",
    "id": 477502301
  },
  {
    "name": "주흘산",
    "latitude": 36.5878,
    "longitude": 128.1892,
    "height": 1108,
    "address": "경상북도 문경시 문경읍 상초리",
    "id": 472803901
  },
  {
    "name": "지리산",
    "latitude": 34.86,
    "longitude": 128.4083,
    "height": 399,
    "address": "경상남도 통영시 사량면 돈지리",
    "id": 482202301
  },
  {
    "name": "지리산_천왕봉",
    "latitude": 35.3436,
    "longitude": 127.77,
    "height": 1915,
    "address": "경상남도 산청군 시천면 중산리",
    "id": 488605302
  },
  {
    "name": "천관산",
    "latitude": 34.6111,
    "longitude": 126.9514,
    "height": 724,
    "address": "전라남도 장흥군 관산읍 외동리",
    "id": 468001701
  },
  {
    "name": "천마산",
    "latitude": 37.65,
    "longitude": 127.2333,
    "height": 810,
    "address": "경기도 남양주시 오남읍 팔현리",
    "id": 413602201
  },
  {
    "name": "천성산",
    "latitude": 35.3833,
    "longitude": 129.05,
    "height": 920,
    "address": "경상남도 양산시 하북면 용연리",
    "id": 483302101
  },
  {
    "name": "천태산",
    "latitude": 36.1667,
    "longitude": 127.6333,
    "height": 715,
    "address": "충청북도 영동군 양산면 가선리",
    "id": 437403501
  },
  {
    "name": "청량산_의상봉",
    "latitude": 36.7833,
    "longitude": 128.8,
    "height": 869,
    "address": "경상북도 봉화군 명호면 북곡리",
    "id": 479203401
  },
  {
    "name": "추월산",
    "latitude": 35.35,
    "longitude": 127.0167,
    "height": 731,
    "address": "전라남도 담양군 용면 월계리",
    "id": 467101801
  },
  {
    "name": "축령산",
    "latitude": 37.7667,
    "longitude": 127.45,
    "height": 887,
    "address": "경기도 가평군 상면 행현리",
    "id": 418203901
  },
  {
    "name": "치악산_비로봉",
    "latitude": 37.3667,
    "longitude": 128.05,
    "height": 1282,
    "address": "강원특별자치도 원주시 소초면 학곡리",
    "id": 421302401
  },
  {
    "name": "칠갑산",
    "latitude": 36.4167,
    "longitude": 126.85,
    "height": 559,
    "address": "충청남도 청양군 대치면 광대리",
    "id": 447902001
  },
  {
    "name": "태백산_장군봉",
    "latitude": 37.0994,
    "longitude": 128.9156,
    "height": 1566,
    "address": "강원특별자치도 태백시 혈동",
    "id": 421902201
  },
  {
    "name": "태화산",
    "latitude": 37.0667,
    "longitude": 128.4167,
    "height": 1027,
    "address": "강원특별자치도 영월군 영월읍 흥월리",
    "id": 427504901
  },
  {
    "name": "팔공산_비로봉",
    "latitude": 36.0167,
    "longitude": 128.7,
    "height": 1192,
    "address": "대구광역시 동구 용수동",
    "id": 271401201
  },
  {
    "name": "팔봉산",
    "latitude": 37.6761,
    "longitude": 127.9042,
    "height": 328,
    "address": "강원특별자치도 홍천군 서면 팔봉리",
    "id": 427206501
  },
  {
    "name": "팔영산",
    "latitude": 34.6028,
    "longitude": 127.4136,
    "height": 606,
    "address": "전라남도 고흥군 영남면 금사리",
    "id": 467702901
  },
  {
    "name": "한라산",
    "latitude": 33.3617,
    "longitude": 126.5297,
    "height": 1947,
    "address": "제주도 제주시 해안동",
    "id": 491102401
  },
  {
    "name": "화악산",
    "latitude": 37.8389,
    "longitude": 128.1717,
    "height": 1468,
    "address": "경기도 가평군 북면 화악리",
    "id": 418204301
  },
  {
    "name": "화왕산",
    "latitude": 35.5694,
    "longitude": 128.6872,
    "height": 757,
    "address": "경상남도 창녕군 고암면 우천리",
    "id": 487403901
  },
  {
    "name": "황매산",
    "latitude": 35.4747,
    "longitude": 128.0708,
    "height": 1113,
    "address": "경상남도 합천군 가회면 둔내리",
    "id": 488906401
  },
  {
    "name": "황석산",
    "latitude": 35.4394,
    "longitude": 127.8914,
    "height": 1192,
    "address": "경상남도 함양군 서하면 봉전리",
    "id": 488703501
  },
  {
    "name": "황악산",
    "latitude": 36.1194,
    "longitude": 128.0747,
    "height": 1111,
    "address": "경상북도 김천시 대항면 운수리",
    "id": 471500901
  },
  {
    "name": "황장산",
    "latitude": 36.6264,
    "longitude": 128.1269,
    "height": 1078,
    "address": "경상북도 문경시 동로면",
    "id": 472801401
  },
  {
    "name": "희양산",
    "latitude": 36.5956,
    "longitude": 128.0506,
    "height": 996,
    "address": "충청북도 괴산군 연풍면 주진리",
    "id": 437603201
  }
]